[
  {
    "Date": "2026-05-16",
    "Title": "Travel to Zurich",
    "City": "Zurich",
    "Country": "Switzerland",
    "Latitude": 47.3769,
    "Longitude": 8.5417,
    "MissionDay": false,
    "Travelers": [
      "Brent",
      "Corrie",
      "Lily",
      "Ethan",
      "Bill"
    ]
  },
  {
    "Date": "2026-05-17",
    "Title": "Lucerne",
    "City": "Lucerne",
    "Country": "Switzerland",
    "Latitude": 47.0502,
    "Longitude": 8.3093,
    "MissionDay": false,
    "Travelers": [
      "Brent",
      "Corrie",
      "Lily",
      "Ethan",
      "Bill"
    ]
  },
  {
    "Date": "2026-05-20",
    "Title": "Dolomites",
    "City": "Ortisei",
    "Country": "Italy",
    "Latitude": 46.5753,
    "Longitude": 11.6713,
    "MissionDay": false,
    "Travelers": [
      "Brent",
      "Corrie",
      "Lily",
      "Ethan",
      "Bill"
    ]
  },
  {
    "Date": "2026-05-23",
    "Title": "Innsbruck",
    "City": "Innsbruck",
    "Country": "Austria",
    "Latitude": 47.2692,
    "Longitude": 11.4041,
    "MissionDay": false,
    "Travelers": [
      "Brent",
      "Corrie",
      "Lily",
      "Ethan",
      "Bill"
    ]
  },
  {
    "Date": "2026-05-24",
    "Title": "Florence",
    "City": "Florence",
    "Country": "Italy",
    "Latitude": 43.7696,
    "Longitude": 11.2558,
    "MissionDay": false,
    "Travelers": [
      "Brent",
      "Corrie",
      "Ethan",
      "Bill"
    ]
  },
  {
    "Date": "2026-05-26",
    "Title": "Rome",
    "City": "Rome",
    "Country": "Italy",
    "Latitude": 41.9028,
    "Longitude": 12.4964,
    "MissionDay": false,
    "Travelers": [
      "Brent",
      "Corrie",
      "Ethan",
      "Bill"
    ]
  },
  {
    "Date": "2026-05-30",
    "Title": "Nafplio",
    "City": "Nafplio",
    "Country": "Greece",
    "Latitude": 37.5673,
    "Longitude": 22.8016,
    "MissionDay": false,
    "Travelers": [
      "Brent"
    ]
  },
  {
    "Date": "2026-06-03",
    "Title": "Athens Mission Begins",
    "City": "Athens",
    "Country": "Greece",
    "Latitude": 37.9838,
    "Longitude": 23.7275,
    "MissionDay": true,
    "Travelers": [
      "Brent"
    ]
  }
]